$GPRMC,082626.17,A,4724.21500,N,00832.15100,E,0.0,90.0,180316,000.0,E*6D
$GPGGA,082626.17,4724.21500,N,00832.15100,E,2,15,1.0,270.0,M,15.5,M,2.0,0000*43
$GPRMC,082627.28,A,4724.21500,N,00832.15100,E,0.0,90.0,180316,000.0,E*60
$GPGGA,082627.28,4724.21500,N,00832.15100,E,2,15,1.0,270.0,M,15.5,M,2.0,0000*4E
$GPRMC,082628.18,A,4724.21500,N,00832.15100,E,0.0,90.0,180316,000.0,E*6C
$GPGGA,082628.18,4724.21500,N,00832.15100,E,2,15,1.0,270.0,M,15.5,M,2.0,0000*42
$GPRMC,082629.19,A,4724.21500,N,00832.15100,E,0.0,90.0,180316,000.0,E*6C
$GPGGA,082629.19,4724.21500,N,00832.15100,E,2,15,1.0,270.0,M,15.5,M,2.0,0000*42
$GPRMC,082630.18,A,4724.21500,N,00832.15100,E,0.0,90.0,180316,000.0,E*65
$GPGGA,082630.18,4724.21500,N,00832.15100,E,2,15,1.0,270.0,M,15.5,M,2.0,0000*4B
$GPRMC,082631.18,A,4724.21500,N,00832.15100,E,0.0,90.0,180316,000.0,E*64
$GPGGA,082631.18,4724.21500,N,00832.15100,E,2,15,1.0,270.0,M,15.5,M,2.0,0000*4A
$GPRMC,082632.29,A,4724.21501,N,00832.15349,E,31.8,90.0,180316,000.0,E*51
$GPGGA,082632.29,4724.21501,N,00832.15349,E,2,15,1.0,270.0,M,15.5,M,2.0,0000*45
$GPRMC,082633.19,A,4724.21506,N,00832.16668,E,32.4,90.0,180316,000.0,E*5E
$GPGGA,082633.19,4724.21506,N,00832.16668,E,2,15,1.0,270.0,M,15.5,M,2.0,0000*45
$GPRMC,082634.18,A,4724.21511,N,00832.17938,E,32.4,90.0,180316,000.0,E*55
$GPGGA,082634.18,4724.21511,N,00832.17938,E,2,15,1.0,270.0,M,15.5,M,2.0,0000*4E
$GPRMC,082635.18,A,4724.21517,N,00832.19327,E,32.4,90.0,180316,000.0,E*58
$GPGGA,082635.18,4724.21517,N,00832.19327,E,2,15,1.0,270.0,M,15.5,M,2.0,0000*43
$GPRMC,082636.29,A,4724.21523,N,00832.20873,E,64.9,90.0,180316,000.0,E*50
$GPGGA,082636.29,4724.21523,N,00832.20873,E,2,15,1.0,270.0,M,15.5,M,2.0,0000*45
$GPRMC,082637.19,A,4724.21534,N,00832.23472,E,64.9,90.0,180316,000.0,E*5A
$GPGGA,082637.19,4724.21534,N,00832.23472,E,2,15,1.0,270.0,M,15.5,M,2.0,0000*4F
$GPRMC,082638.18,A,4724.21545,N,00832.26209,E,64.9,90.0,180316,000.0,E*5D
$GPGGA,082638.18,4724.21545,N,00832.26209,E,2,15,1.0,270.0,M,15.5,M,2.0,0000*48
$GPRMC,082639.18,A,4724.21556,N,00832.28895,E,64.9,91.0,180316,000.0,E*5E
$GPGGA,082639.18,4724.21556,N,00832.28895,E,2,15,1.0,270.0,M,15.5,M,2.0,0000*4A
$GPRMC,082640.18,A,4724.21025,N,00832.31403,E,64.9,119.0,180316,000.0,E*6B
$GPGGA,082640.18,4724.21025,N,00832.31403,E,2,15,1.0,270.0,M,15.5,M,2.0,0000*4E
$GPRMC,082641.17,A,4724.20037,N,00832.33508,E,64.9,137.0,180316,000.0,E*63
$GPGGA,082641.17,4724.20037,N,00832.33508,E,2,15,1.0,270.0,M,15.5,M,2.0,0000*4A
$GPRMC,082642.28,A,4724.18440,N,00832.35280,E,64.9,155.0,180316,000.0,E*66
$GPGGA,082642.28,4724.18440,N,00832.35280,E,2,15,1.0,270.0,M,15.5,M,2.0,0000*4B
$GPRMC,082643.18,A,4724.16736,N,00832.36051,E,64.9,172.0,180316,000.0,E*60
$GPGGA,082643.18,4724.16736,N,00832.36051,E,2,15,1.0,270.0,M,15.5,M,2.0,0000*48
$GPRMC,082644.18,A,4724.14999,N,00832.36094,E,64.9,188.0,180316,000.0,E*62
$GPGGA,082644.18,4724.14999,N,00832.36094,E,2,15,1.0,270.0,M,15.5,M,2.0,0000*4F
$GPRMC,082645.18,A,4724.13260,N,00832.35630,E,64.9,198.0,180316,000.0,E*63
$GPGGA,082645.18,4724.13260,N,00832.35630,E,2,15,1.0,270.0,M,15.5,M,2.0,0000*4F
$GPRMC,082646.18,A,4724.12388,N,00832.35166,E,64.9,214.0,180316,000.0,E*65
$GPGGA,082646.18,4724.12388,N,00832.35166,E,2,15,1.0,270.0,M,15.5,M,2.0,0000*4E
$GPRMC,082647.19,A,4724.10551,N,00832.33257,E,64.9,228.0,180316,000.0,E*6D
$GPGGA,082647.19,4724.10551,N,00832.33257,E,2,15,1.0,270.0,M,15.5,M,2.0,0000*49
$GPRMC,082648.18,A,4724.09429,N,00832.31350,E,64.9,241.0,180316,000.0,E*6E
$GPGGA,082648.18,4724.09429,N,00832.31350,E,2,15,1.0,270.0,M,15.5,M,2.0,0000*45
$GPRMC,082649.18,A,4724.08593,N,00832.29011,E,64.9,253.0,180316,000.0,E*62
$GPGGA,082649.18,4724.08593,N,00832.29011,E,2,15,1.0,270.0,M,15.5,M,2.0,0000*4A
$GPRMC,082650.18,A,4724.08081,N,00832.26385,E,64.9,267.0,180316,000.0,E*6A
$GPGGA,082650.18,4724.08081,N,00832.26385,E,2,15,1.0,270.0,M,15.5,M,2.0,0000*45
$GPRMC,082651.19,A,4724.07955,N,00832.23702,E,64.9,272.0,180316,000.0,E*6F
$GPGGA,082651.19,4724.07955,N,00832.23702,E,2,15,1.0,270.0,M,15.5,M,2.0,0000*44
$GPRMC,082652.17,A,4724.07997,N,00832.21175,E,64.9,270.0,180316,000.0,E*6A
$GPGGA,082652.17,4724.07997,N,00832.21175,E,2,15,1.0,270.0,M,15.5,M,2.0,0000*43
$GPRMC,082653.28,A,4724.07990,N,00832.18438,E,64.9,270.0,180316,000.0,E*66
$GPGGA,082653.28,4724.07990,N,00832.18438,E,2,15,1.0,270.0,M,15.5,M,2.0,0000*4F
$GPRMC,082654.18,A,4724.07978,N,00832.15495,E,64.9,270.0,180316,000.0,E*6E
$GPGGA,082654.18,4724.07978,N,00832.15495,E,2,15,1.0,270.0,M,15.5,M,2.0,0000*47
$GPRMC,082655.18,A,4724.07967,N,00832.12887,E,64.9,270.0,180316,000.0,E*69
$GPGGA,082655.18,4724.07967,N,00832.12887,E,2,15,1.0,270.0,M,15.5,M,2.0,0000*40
$GPRMC,082656.18,A,4724.07955,N,00832.09945,E,64.9,270.0,180316,000.0,E*6E
$GPGGA,082656.18,4724.07955,N,00832.09945,E,2,15,1.0,270.0,M,15.5,M,2.0,0000*47
$GPRMC,082657.28,A,4724.07944,N,00832.07326,E,64.9,270.0,180316,000.0,E*6D
$GPGGA,082657.28,4724.07944,N,00832.07326,E,2,15,1.0,270.0,M,15.5,M,2.0,0000*44
$GPRMC,082658.19,A,4724.07932,N,00832.04349,E,64.9,270.0,180316,000.0,E*6B
$GPGGA,082658.19,4724.07932,N,00832.04349,E,2,15,1.0,270.0,M,15.5,M,2.0,0000*42
$GPRMC,082659.18,A,4724.07921,N,00832.01658,E,64.9,270.0,180316,000.0,E*69
$GPGGA,082659.18,4724.07921,N,00832.01658,E,2,15,1.0,270.0,M,15.5,M,2.0,0000*40
$GPRMC,082700.18,A,4724.08585,N,00832.00152,E,64.9,9.0,180316,000.0,E*69
$GPGGA,082700.18,4724.08585,N,00832.00152,E,2,15,1.0,270.0,M,15.5,M,2.0,0000*4C
$GPRMC,082701.18,A,4724.08708,N,00832.02781,E,64.9,90.0,180316,000.0,E*55
$GPGGA,082701.18,4724.08708,N,00832.02781,E,2,15,1.0,270.0,M,15.5,M,2.0,0000*40
$GPRMC,082702.18,A,4724.08713,N,00832.04110,E,64.9,90.0,180316,000.0,E*54
$GPGGA,082702.18,4724.08713,N,00832.04110,E,2,15,1.0,270.0,M,15.5,M,2.0,0000*41
$GPRMC,082703.29,A,4724.08725,N,00832.06969,E,64.9,90.0,180316,000.0,E*56
$GPGGA,082703.29,4724.08725,N,00832.06969,E,2,15,1.0,270.0,M,15.5,M,2.0,0000*43
$GPRMC,082704.19,A,4724.08737,N,00832.10038,E,64.9,90.0,180316,000.0,E*5B
$GPGGA,082704.19,4724.08737,N,00832.10038,E,2,15,1.0,270.0,M,15.5,M,2.0,0000*4E
$GPRMC,082705.18,A,4724.08748,N,00832.12699,E,64.9,90.0,180316,000.0,E*5C
$GPGGA,082705.18,4724.08748,N,00832.12699,E,2,15,1.0,270.0,M,15.5,M,2.0,0000*49
$GPRMC,082706.18,A,4724.08759,N,00832.15513,E,64.9,90.0,180316,000.0,E*59
$GPGGA,082706.18,4724.08759,N,00832.15513,E,2,15,1.0,3.0,M,15.5,M,2.0,0000*4A
$GPRMC,082707.18,A,4724.08770,N,00832.18243,E,64.9,90.0,180316,000.0,E*5C
$GPGGA,082707.18,4724.08770,N,00832.18243,E,2,15,1.0,300.0,M,15.5,M,2.0,0000*4F
$GPRMC,082708.18,A,4724.08781,N,00832.20775,E,64.9,90.0,180316,000.0,E*56
$GPGGA,082708.18,4724.08781,N,00832.20775,E,2,15,1.0,300.0,M,15.5,M,2.0,0000*45
$GPRMC,082709.18,A,4724.08792,N,00832.23547,E,64.9,90.0,180316,000.0,E*55
$GPGGA,082709.18,4724.08792,N,00832.23547,E,2,15,1.0,300.0,M,15.5,M,2.0,0000*46
$GPRMC,082710.18,A,4724.08802,N,00832.26205,E,64.9,90.0,180316,000.0,E*5F
$GPGGA,082710.18,4724.08802,N,00832.26205,E,2,15,1.0,300.0,M,15.5,M,2.0,0000*4C
$GPRMC,082711.17,A,4724.08813,N,00832.28897,E,64.9,90.0,180316,000.0,E*5E
$GPGGA,082711.17,4724.08813,N,00832.28897,E,2,15,1.0,300.0,M,15.5,M,2.0,0000*4D
$GPRMC,082712.28,A,4724.08825,N,00832.31767,E,64.9,90.0,180316,000.0,E*5C
$GPGGA,082712.28,4724.08825,N,00832.31767,E,2,15,1.0,3.0,M,15.5,M,2.0,0000*4F
$GPRMC,082713.18,A,4724.08835,N,00832.34367,E,64.9,90.0,180316,000.0,E*5E
$GPGGA,082713.18,4724.08835,N,00832.34367,E,2,15,1.0,350.0,M,15.5,M,2.0,0000*48
$GPRMC,082714.18,A,4724.08846,N,00832.36977,E,64.9,90.0,180316,000.0,E*54
$GPGGA,082714.18,4724.08846,N,00832.36977,E,2,15,1.0,350.0,M,15.5,M,2.0,0000*42
$GPRMC,082715.18,A,4724.08856,N,00832.39629,E,64.9,90.0,180316,000.0,E*5F
$GPGGA,082715.18,4724.08856,N,00832.39629,E,2,15,1.0,350.0,M,15.5,M,2.0,0000*49
$GPRMC,082716.19,A,4724.08867,N,00832.42280,E,64.9,90.0,180316,000.0,E*54
$GPGGA,082716.19,4724.08867,N,00832.42280,E,2,15,1.0,350.0,M,15.5,M,2.0,0000*42
$GPRMC,082717.18,A,4724.08873,N,00832.43612,E,64.9,90.0,180316,000.0,E*5F
$GPGGA,082717.18,4724.08873,N,00832.43612,E,2,15,1.0,350.0,M,15.5,M,2.0,0000*49
$GPRMC,082718.18,A,4724.08886,N,00832.46883,E,64.9,90.0,180316,000.0,E*59
$GPGGA,082718.18,4724.08886,N,00832.46883,E,2,15,1.0,350.0,M,15.5,M,2.0,0000*4F
$GPRMC,082719.18,A,4724.08896,N,00832.49450,E,64.9,90.0,180316,000.0,E*54
$GPGGA,082719.18,4724.08896,N,00832.49450,E,2,15,1.0,350.0,M,15.5,M,2.0,0000*42
$GPRMC,082720.18,A,4724.08907,N,00832.52190,E,64.9,90.0,180316,000.0,E*54
$GPGGA,082720.18,4724.08907,N,00832.52190,E,2,15,1.0,350.0,M,15.5,M,2.0,0000*42
$GPRMC,082721.18,A,4724.08917,N,00832.54715,E,64.9,90.0,180316,000.0,E*59
$GPGGA,082721.18,4724.08917,N,00832.54715,E,2,15,1.0,350.0,M,15.5,M,2.0,0000*4F
$GPRMC,082722.18,A,4724.08928,N,00832.57363,E,64.9,90.0,180316,000.0,E*50
$GPGGA,082722.18,4724.08928,N,00832.57363,E,2,15,1.0,350.0,M,15.5,M,2.0,0000*46
$GPRMC,082723.19,A,4724.08938,N,00832.60020,E,64.9,90.0,180316,000.0,E*51
$GPGGA,082723.19,4724.08938,N,00832.60020,E,2,15,1.0,350.0,M,15.5,M,2.0,0000*47
$GPRMC,082724.17,A,4724.08949,N,00832.62797,E,46.6,90.0,180316,000.0,E*58
$GPGGA,082724.17,4724.08949,N,00832.62797,E,2,15,1.0,350.0,M,15.5,M,2.0,0000*41
$GPRMC,082725.28,A,4724.08956,N,00832.64411,E,14.9,90.0,180316,000.0,E*58
$GPGGA,082725.28,4724.08956,N,00832.64411,E,2,15,1.0,350.0,M,15.5,M,2.0,0000*49
$GPRMC,082726.19,A,4724.08957,N,00832.64889,E,0.0,90.0,180316,000.0,E*69
$GPGGA,082726.19,4724.08957,N,00832.64889,E,2,15,1.0,350.0,M,15.5,M,2.0,0000*44
$GPRMC,082727.18,A,4724.08957,N,00832.64889,E,0.0,90.0,180316,000.0,E*69
$GPGGA,082727.18,4724.08957,N,00832.64889,E,2,15,1.0,350.0,M,15.5,M,2.0,0000*44
$GPRMC,082728.18,A,4724.08957,N,00832.64889,E,0.0,90.0,180316,000.0,E*66
$GPGGA,082728.18,4724.08957,N,00832.64889,E,2,15,1.0,350.0,M,15.5,M,2.0,0000*4B
$GPRMC,082729.18,A,4724.08957,N,00832.64889,E,0.0,90.0,180316,000.0,E*67
$GPGGA,082729.18,4724.08957,N,00832.64889,E,2,15,1.0,350.0,M,15.5,M,2.0,0000*4A
$GPRMC,082730.18,A,4724.08957,N,00832.64889,E,0.0,90.0,180316,000.0,E*6F
$GPGGA,082730.18,4724.08957,N,00832.64889,E,2,15,1.0,347.0,M,15.5,M,2.0,0000*44
$GPRMC,082731.29,A,4724.08957,N,00832.64889,E,0.0,90.0,180316,000.0,E*6C
$GPGGA,082731.29,4724.08957,N,00832.64889,E,2,15,1.0,333.0,M,15.5,M,2.0,0000*44
$GPRMC,082732.19,A,4724.08957,N,00832.64889,E,0.0,90.0,180316,000.0,E*6C
$GPGGA,082732.19,4724.08957,N,00832.64889,E,2,15,1.0,320.0,M,15.5,M,2.0,0000*46
$GPRMC,082733.19,A,4724.08957,N,00832.64889,E,0.0,90.0,180316,000.0,E*6D
$GPGGA,082733.19,4724.08957,N,00832.64889,E,2,15,1.0,305.0,M,15.5,M,2.0,0000*40
$GPRMC,082734.18,A,4724.08957,N,00832.64889,E,0.0,90.0,180316,000.0,E*6B
$GPGGA,082734.18,4724.08957,N,00832.64889,E,2,15,1.0,290.0,M,15.5,M,2.0,0000*4B
$GPRMC,082735.18,A,4724.08957,N,00832.64889,E,0.0,90.0,180316,000.0,E*6A
$GPGGA,082735.18,4724.08957,N,00832.64889,E,2,15,1.0,277.0,M,15.5,M,2.0,0000*43
$GPRMC,082736.28,A,4724.08957,N,00832.64889,E,0.0,90.0,180316,000.0,E*6A
$GPGGA,082736.28,4724.08957,N,00832.64889,E,2,15,1.0,273.0,M,15.5,M,2.0,0000*47
$GPRMC,082737.19,A,4724.08957,N,00832.64889,E,0.0,90.0,180316,000.0,E*69
$GPGGA,082737.19,4724.08957,N,00832.64889,E,2,15,1.0,270.0,M,15.5,M,2.0,0000*47
$GPRMC,082738.18,A,4724.08957,N,00832.64889,E,0.0,90.0,180316,000.0,E*67
$GPGGA,082738.18,4724.08957,N,00832.64889,E,2,15,1.0,270.0,M,15.5,M,2.0,0000*49
$GPRMC,082739.18,A,4724.08957,N,00832.64889,E,0.0,90.0,180316,000.0,E*66
$GPGGA,082739.18,4724.08957,N,00832.64889,E,2,15,1.0,270.0,M,15.5,M,2.0,0000*48
$GPRMC,082740.18,A,4724.08957,N,00832.64889,E,0.0,90.0,180316,000.0,E*68
$GPGGA,082740.18,4724.08957,N,00832.64889,E,2,15,1.0,270.0,M,15.5,M,2.0,0000*46
$GPRMC,082741.18,A,4724.08957,N,00832.64889,E,0.0,90.0,180316,000.0,E*69
$GPGGA,082741.18,4724.08957,N,00832.64889,E,2,15,1.0,270.0,M,15.5,M,2.0,0000*47
$GPRMC,082742.29,A,4724.08957,N,00832.64889,E,0.0,90.0,180316,000.0,E*68
$GPGGA,082742.29,4724.08957,N,00832.64889,E,2,15,1.0,270.0,M,15.5,M,2.0,0000*46
$GPRMC,082743.19,A,4724.08957,N,00832.64889,E,0.0,90.0,180316,000.0,E*6A
$GPGGA,082743.19,4724.08957,N,00832.64889,E,2,15,1.0,270.0,M,15.5,M,2.0,0000*44
$GPRMC,082744.18,A,4724.08957,N,00832.64889,E,0.0,90.0,180316,000.0,E*6C
$GPGGA,082744.18,4724.08957,N,00832.64889,E,2,15,1.0,270.0,M,15.5,M,2.0,0000*42
$GPRMC,082745.18,A,4724.08957,N,00832.64889,E,0.0,90.0,180316,000.0,E*6D
$GPGGA,082745.18,4724.08957,N,00832.64889,E,2,15,1.0,270.0,M,15.5,M,2.0,0000*43
